{
  "features": [
    {
      "geometry": {
        "coordinates": [
          114.1682327,
          22.3244406
        ],
        "type": "Point"
      },
      "properties": {
        "assigned_population": 0.0,
        "station_id": "prince edward::22.3244::114.1682",
        "station_name": "\u592a\u5b50 Prince Edward",
        "travel_time_minutes": 4.0
      },
      "type": "Feature"
    },
    {
      "geometry": {
        "coordinates": [
          114.1683614,
          22.3244648
        ],
        "type": "Point"
      },
      "properties": {
        "assigned_population": 0.0,
        "station_id": "prince edward::22.3245::114.1684",
        "station_name": "\u592a\u5b50 Prince Edward",
        "travel_time_minutes": 7.16886104176369
      },
      "type": "Feature"
    },
    {
      "geometry": {
        "coordinates": [
          114.1693132,
          22.3192386
        ],
        "type": "Point"
      },
      "properties": {
        "assigned_population": 0.0,
        "station_id": "mong kok::22.3192::114.1693",
        "station_name": "\u65fa\u89d2 Mong Kok",
        "travel_time_minutes": 8.789441688888065
      },
      "type": "Feature"
    },
    {
      "geometry": {
        "coordinates": [
          114.1694523,
          22.3192647
        ],
        "type": "Point"
      },
      "properties": {
        "assigned_population": 31408.051096498988,
        "station_id": "mong kok::22.3193::114.1695",
        "station_name": "\u65fa\u89d2 Mong Kok",
        "travel_time_minutes": 8.958294591412765
      },
      "type": "Feature"
    },
    {
      "geometry": {
        "coordinates": [
          114.1694488,
          22.319263
        ],
        "type": "Point"
      },
      "properties": {
        "assigned_population": 0.0,
        "station_id": "mong kok::22.3193::114.1694",
        "station_name": "\u65fa\u89d2 Mong Kok",
        "travel_time_minutes": 8.958501257866688
      },
      "type": "Feature"
    },
    {
      "geometry": {
        "coordinates": [
          114.1689174,
          22.3310586
        ],
        "type": "Point"
      },
      "properties": {
        "assigned_population": 30766.097942163226,
        "station_id": "shek kip mei::22.3311::114.1689",
        "station_name": "\u77f3\u7864\u5c3e Shek Kip Mei",
        "travel_time_minutes": 9.216668264283957
      },
      "type": "Feature"
    },
    {
      "geometry": {
        "coordinates": [
          114.1623879,
          22.3305577
        ],
        "type": "Point"
      },
      "properties": {
        "assigned_population": 29365.031027298788,
        "station_id": "sham shui po::22.3306::114.1624",
        "station_name": "\u6df1\u6c34\u57d7 Sham Shui Po",
        "travel_time_minutes": 9.351984005111639
      },
      "type": "Feature"
    },
    {
      "geometry": {
        "coordinates": [
          114.1624588,
          22.3306332
        ],
        "type": "Point"
      },
      "properties": {
        "assigned_population": 0.0,
        "station_id": "sham shui po::22.3306::114.1625",
        "station_name": "\u6df1\u6c34\u57d7 Sham Shui Po",
        "travel_time_minutes": 9.354679626759056
      },
      "type": "Feature"
    },
    {
      "geometry": {
        "coordinates": [
          114.1687987,
          22.332964
        ],
        "type": "Point"
      },
      "properties": {
        "assigned_population": 0.0,
        "station_id": "shek kip mei::22.333::114.1688",
        "station_name": "\u77f3\u7864\u5c3e Shek Kip Mei",
        "travel_time_minutes": 9.588515796071322
      },
      "type": "Feature"
    },
    {
      "geometry": {
        "coordinates": [
          114.1705757,
          22.3130573
        ],
        "type": "Point"
      },
      "properties": {
        "assigned_population": 31109.751078621208,
        "station_id": "yau ma tei::22.3131::114.1706",
        "station_name": "\u6cb9\u9ebb\u5730 Yau Ma Tei",
        "travel_time_minutes": 10.77383730851714
      },
      "type": "Feature"
    },
    {
      "geometry": {
        "coordinates": [
          114.1707361,
          22.3130841
        ],
        "type": "Point"
      },
      "properties": {
        "assigned_population": 0.0,
        "station_id": "yau ma tei::22.3131::114.1707",
        "station_name": "\u6cb9\u9ebb\u5730 Yau Ma Tei",
        "travel_time_minutes": 10.774430343202871
      },
      "type": "Feature"
    },
    {
      "geometry": {
        "coordinates": [
          114.1560949,
          22.3354371
        ],
        "type": "Point"
      },
      "properties": {
        "assigned_population": 0.0,
        "station_id": "cheung sha wan::22.3354::114.1561",
        "station_name": "\u9577\u6c99\u7063 Cheung Sha Wan",
        "travel_time_minutes": 11.592428917133473
      },
      "type": "Feature"
    },
    {
      "geometry": {
        "coordinates": [
          114.156174,
          22.3355274
        ],
        "type": "Point"
      },
      "properties": {
        "assigned_population": 54011.7430939552,
        "station_id": "cheung sha wan::22.3355::114.1562",
        "station_name": "\u9577\u6c99\u7063 Cheung Sha Wan",
        "travel_time_minutes": 11.595852418857376
      },
      "type": "Feature"
    },
    {
      "geometry": {
        "coordinates": [
          114.1772586,
          22.3367533
        ],
        "type": "Point"
      },
      "properties": {
        "assigned_population": 31043.47262846208,
        "station_id": "kowloon tong::22.3368::114.1773",
        "station_name": "\u4e5d\u9f8d\u5858 Kowloon Tong",
        "travel_time_minutes": 11.848378771781597
      },
      "type": "Feature"
    },
    {
      "geometry": {
        "coordinates": [
          114.1772614,
          22.3368912
        ],
        "type": "Point"
      },
      "properties": {
        "assigned_population": 57228.09962712054,
        "station_id": "kowloon tong::22.3369::114.1773",
        "station_name": "\u4e5d\u9f8d\u5858 Kowloon Tong",
        "travel_time_minutes": 12.040084827596292
      },
      "type": "Feature"
    },
    {
      "geometry": {
        "coordinates": [
          114.1716158,
          22.3050921
        ],
        "type": "Point"
      },
      "properties": {
        "assigned_population": 0.0,
        "station_id": "jordan::22.3051::114.1716",
        "station_name": "\u4f50\u6566 Jordan",
        "travel_time_minutes": 13.098183297752447
      },
      "type": "Feature"
    },
    {
      "geometry": {
        "coordinates": [
          114.1717821,
          22.3051088
        ],
        "type": "Point"
      },
      "properties": {
        "assigned_population": 0.0,
        "station_id": "jordan::22.3051::114.1718",
        "station_name": "\u4f50\u6566 Jordan",
        "travel_time_minutes": 13.100872584772382
      },
      "type": "Feature"
    },
    {
      "geometry": {
        "coordinates": [
          114.1758821,
          22.3370045
        ],
        "type": "Point"
      },
      "properties": {
        "assigned_population": 0.0,
        "station_id": "kowloon tong::22.337::114.1759",
        "station_name": "\u4e5d\u9f8d\u5858 Kowloon Tong",
        "travel_time_minutes": 13.652180803779226
      },
      "type": "Feature"
    },
    {
      "geometry": {
        "coordinates": [
          114.1758397,
          22.3369989
        ],
        "type": "Point"
      },
      "properties": {
        "assigned_population": 0.0,
        "station_id": "kowloon tong::22.337::114.1758",
        "station_name": "\u4e5d\u9f8d\u5858 Kowloon Tong",
        "travel_time_minutes": 13.704243652411451
      },
      "type": "Feature"
    },
    {
      "geometry": {
        "coordinates": [
          114.1483992,
          22.3374427
        ],
        "type": "Point"
      },
      "properties": {
        "assigned_population": 49694.66080630946,
        "station_id": "lai chi kok::22.3374::114.1484",
        "station_name": "\u8354\u679d\u89d2 Lai Chi Kok",
        "travel_time_minutes": 13.793606089633755
      },
      "type": "Feature"
    },
    {
      "geometry": {
        "coordinates": [
          114.175755,
          22.3372005
        ],
        "type": "Point"
      },
      "properties": {
        "assigned_population": 0.0,
        "station_id": "2::22.3372::114.1758",
        "station_name": "2",
        "travel_time_minutes": 13.878946266394534
      },
      "type": "Feature"
    },
    {
      "geometry": {
        "coordinates": [
          114.1826415,
          22.3093306
        ],
        "type": "Point"
      },
      "properties": {
        "assigned_population": 0.0,
        "station_id": "ho man tin::22.3093::114.1826",
        "station_name": "\u4f55\u6587\u7530 Ho Man Tin",
        "travel_time_minutes": 13.976591839461467
      },
      "type": "Feature"
    },
    {
      "geometry": {
        "coordinates": [
          114.1756268,
          22.3371494
        ],
        "type": "Point"
      },
      "properties": {
        "assigned_population": 29328.22762211394,
        "station_id": "1::22.3371::114.1756",
        "station_name": "1",
        "travel_time_minutes": 14.017328152449004
      },
      "type": "Feature"
    },
    {
      "geometry": {
        "coordinates": [
          114.1859052,
          22.3375039
        ],
        "type": "Point"
      },
      "properties": {
        "assigned_population": 0.0,
        "station_id": "lok fu::22.3375::114.1859",
        "station_name": "\u6a02\u5bcc Lok Fu",
        "travel_time_minutes": 14.174652324483572
      },
      "type": "Feature"
    },
    {
      "geometry": {
        "coordinates": [
          114.1828025,
          22.3094852
        ],
        "type": "Point"
      },
      "properties": {
        "assigned_population": 0.0,
        "station_id": "ho man tin::22.3095::114.1828",
        "station_name": "\u4f55\u6587\u7530 Ho Man Tin",
        "travel_time_minutes": 14.274981425039805
      },
      "type": "Feature"
    },
    {
      "geometry": {
        "coordinates": [
          114.1826418,
          22.3095638
        ],
        "type": "Point"
      },
      "properties": {
        "assigned_population": 31461.644382675848,
        "station_id": "ho man tin::22.3096::114.1826",
        "station_name": "\u4f55\u6587\u7530 Ho Man Tin",
        "travel_time_minutes": 14.300725280192943
      },
      "type": "Feature"
    },
    {
      "geometry": {
        "coordinates": [
          114.1726166,
          22.3219201
        ],
        "type": "Point"
      },
      "properties": {
        "assigned_population": 0.0,
        "station_id": "2::22.3219::114.1726",
        "station_name": "2",
        "travel_time_minutes": 14.451570140133681
      },
      "type": "Feature"
    },
    {
      "geometry": {
        "coordinates": [
          114.1726048,
          22.3219527
        ],
        "type": "Point"
      },
      "properties": {
        "assigned_population": 0.0,
        "station_id": "mong kok east::22.322::114.1726",
        "station_name": "\u65fa\u89d2\u6771 Mong Kok East",
        "travel_time_minutes": 14.470950227099145
      },
      "type": "Feature"
    },
    {
      "geometry": {
        "coordinates": [
          114.1727523,
          22.3219449
        ],
        "type": "Point"
      },
      "properties": {
        "assigned_population": 31718.17816965279,
        "station_id": "3::22.3219::114.1728",
        "station_name": "3",
        "travel_time_minutes": 14.629423005177069
      },
      "type": "Feature"
    },
    {
      "geometry": {
        "coordinates": [
          114.1876606,
          22.338231
        ],
        "type": "Point"
      },
      "properties": {
        "assigned_population": 28797.473958591356,
        "station_id": "lok fu::22.3382::114.1877",
        "station_name": "\u6a02\u5bcc Lok Fu",
        "travel_time_minutes": 14.69577881103498
      },
      "type": "Feature"
    },
    {
      "geometry": {
        "coordinates": [
          114.1726972,
          22.3223652
        ],
        "type": "Point"
      },
      "properties": {
        "assigned_population": 0.0,
        "station_id": "1::22.3224::114.1727",
        "station_name": "1",
        "travel_time_minutes": 15.056478833099614
      },
      "type": "Feature"
    },
    {
      "geometry": {
        "coordinates": [
          114.1724902,
          22.3223616
        ],
        "type": "Point"
      },
      "properties": {
        "assigned_population": 0.0,
        "station_id": "mong kok east::22.3224::114.1725",
        "station_name": "\u65fa\u89d2\u6771 Mong Kok East",
        "travel_time_minutes": 15.05808582709878
      },
      "type": "Feature"
    },
    {
      "geometry": {
        "coordinates": [
          114.172169,
          22.29718
        ],
        "type": "Point"
      },
      "properties": {
        "assigned_population": 29825.038244037976,
        "station_id": "tsim sha tsui::22.2972::114.1722",
        "station_name": "\u5c16\u6c99\u5480 Tsim Sha Tsui",
        "travel_time_minutes": 15.403990767822282
      },
      "type": "Feature"
    },
    {
      "geometry": {
        "coordinates": [
          114.1722971,
          22.2971822
        ],
        "type": "Point"
      },
      "properties": {
        "assigned_population": 0.0,
        "station_id": "tsim sha tsui::22.2972::114.1723",
        "station_name": "\u5c16\u6c99\u5480 Tsim Sha Tsui",
        "travel_time_minutes": 15.40908790723876
      },
      "type": "Feature"
    },
    {
      "geometry": {
        "coordinates": [
          114.1391541,
          22.3378719
        ],
        "type": "Point"
      },
      "properties": {
        "assigned_population": 44535.17986234562,
        "station_id": "mei foo::22.3379::114.1392",
        "station_name": "\u7f8e\u5b5a Mei Foo",
        "travel_time_minutes": 16.22371820188757
      },
      "type": "Feature"
    },
    {
      "geometry": {
        "coordinates": [
          114.1392054,
          22.3379838
        ],
        "type": "Point"
      },
      "properties": {
        "assigned_population": 22877.572458593993,
        "station_id": "mei foo::22.338::114.1392",
        "station_name": "\u7f8e\u5b5a Mei Foo",
        "travel_time_minutes": 16.228255735608066
      },
      "type": "Feature"
    },
    {
      "geometry": {
        "coordinates": [
          114.1896461,
          22.304901
        ],
        "type": "Point"
      },
      "properties": {
        "assigned_population": 88918.02590094172,
        "station_id": "whampoa::22.3049::114.1896",
        "station_name": "\u9ec3\u57d4 Whampoa",
        "travel_time_minutes": 16.266898130298035
      },
      "type": "Feature"
    },
    {
      "geometry": {
        "coordinates": [
          114.1824075,
          22.3030345
        ],
        "type": "Point"
      },
      "properties": {
        "assigned_population": 0.0,
        "station_id": "hung hom::22.303::114.1824",
        "station_name": "\u7d05\u78e1 Hung Hom",
        "travel_time_minutes": 16.2928082726525
      },
      "type": "Feature"
    },
    {
      "geometry": {
        "coordinates": [
          114.1821592,
          22.3030545
        ],
        "type": "Point"
      },
      "properties": {
        "assigned_population": 0.0,
        "station_id": "hung hom::22.3031::114.1822",
        "station_name": "\u7d05\u78e1 Hung Hom",
        "travel_time_minutes": 16.33102262973683
      },
      "type": "Feature"
    },
    {
      "geometry": {
        "coordinates": [
          114.1932053,
          22.3416178
        ],
        "type": "Point"
      },
      "properties": {
        "assigned_population": 26941.825585455434,
        "station_id": "wong tai sin::22.3416::114.1932",
        "station_name": "\u9ec3\u5927\u4ed9 Wong Tai Sin",
        "travel_time_minutes": 16.476162550975033
      },
      "type": "Feature"
    },
    {
      "geometry": {
        "coordinates": [
          114.1875377,
          22.3169855
        ],
        "type": "Point"
      },
      "properties": {
        "assigned_population": 0.0,
        "station_id": "to kwa wan::22.317::114.1875",
        "station_name": "\u571f\u74dc\u7063 To Kwa Wan",
        "travel_time_minutes": 16.729379616148332
      },
      "type": "Feature"
    },
    {
      "geometry": {
        "coordinates": [
          114.1875579,
          22.3169857
        ],
        "type": "Point"
      },
      "properties": {
        "assigned_population": 30856.257215343227,
        "station_id": "to kwa wan::22.317::114.1876",
        "station_name": "\u571f\u74dc\u7063 To Kwa Wan",
        "travel_time_minutes": 16.75535479744093
      },
      "type": "Feature"
    },
    {
      "geometry": {
        "coordinates": [
          114.1951039,
          22.3417863
        ],
        "type": "Point"
      },
      "properties": {
        "assigned_population": 25323.807693902865,
        "station_id": "wong tai sin::22.3418::114.1951",
        "station_name": "\u9ec3\u5927\u4ed9 Wong Tai Sin",
        "travel_time_minutes": 16.966228080503264
      },
      "type": "Feature"
    },
    {
      "geometry": {
        "coordinates": [
          114.181456,
          22.3028185
        ],
        "type": "Point"
      },
      "properties": {
        "assigned_population": 0.0,
        "station_id": "3::22.3028::114.1815",
        "station_name": "3",
        "travel_time_minutes": 17.292963476159358
      },
      "type": "Feature"
    },
    {
      "geometry": {
        "coordinates": [
          114.1813141,
          22.302829
        ],
        "type": "Point"
      },
      "properties": {
        "assigned_population": 30203.32542245918,
        "station_id": "2::22.3028::114.1813",
        "station_name": "2",
        "travel_time_minutes": 17.462079093820197
      },
      "type": "Feature"
    },
    {
      "geometry": {
        "coordinates": [
          114.2015739,
          22.3399391
        ],
        "type": "Point"
      },
      "properties": {
        "assigned_population": 0.0,
        "station_id": "diamond hill::22.3399::114.2016",
        "station_name": "\u947d\u77f3\u5c71 Diamond Hill",
        "travel_time_minutes": 18.780351594445904
      },
      "type": "Feature"
    },
    {
      "geometry": {
        "coordinates": [
          114.2016471,
          22.3400859
        ],
        "type": "Point"
      },
      "properties": {
        "assigned_population": 62994.955519489886,
        "station_id": "diamond hill::22.3401::114.2016",
        "station_name": "\u947d\u77f3\u5c71 Diamond Hill",
        "travel_time_minutes": 18.949784199457447
      },
      "type": "Feature"
    },
    {
      "geometry": {
        "coordinates": [
          114.1751008,
          22.2954745
        ],
        "type": "Point"
      },
      "properties": {
        "assigned_population": 55624.1463287966,
        "station_id": "east tsim sha tsui::22.2955::114.1751",
        "station_name": "\u5c16\u6771 East Tsim Sha Tsui",
        "travel_time_minutes": 19.032883886816542
      },
      "type": "Feature"
    },
    {
      "geometry": {
        "coordinates": [
          114.1750384,
          22.2955926
        ],
        "type": "Point"
      },
      "properties": {
        "assigned_population": 0.0,
        "station_id": "2::22.2956::114.175",
        "station_name": "2",
        "travel_time_minutes": 19.034289935324733
      },
      "type": "Feature"
    },
    {
      "geometry": {
        "coordinates": [
          114.1750129,
          22.295647
        ],
        "type": "Point"
      },
      "properties": {
        "assigned_population": 0.0,
        "station_id": "east tsim sha tsui::22.2956::114.175",
        "station_name": "\u5c16\u6771 East Tsim Sha Tsui",
        "travel_time_minutes": 19.116707635516146
      },
      "type": "Feature"
    },
    {
      "geometry": {
        "coordinates": [
          114.1750729,
          22.2955305
        ],
        "type": "Point"
      },
      "properties": {
        "assigned_population": 0.0,
        "station_id": "1::22.2955::114.1751",
        "station_name": "1",
        "travel_time_minutes": 19.118592069595092
      },
      "type": "Feature"
    },
    {
      "geometry": {
        "coordinates": [
          114.1913624,
          22.3260317
        ],
        "type": "Point"
      },
      "properties": {
        "assigned_population": 30176.83151570587,
        "station_id": "sung wong toi::22.326::114.1914",
        "station_name": "\u5b8b\u7687\u81fa Sung Wong Toi",
        "travel_time_minutes": 19.38542252357152
      },
      "type": "Feature"
    },
    {
      "geometry": {
        "coordinates": [
          114.1914338,
          22.3258764
        ],
        "type": "Point"
      },
      "properties": {
        "assigned_population": 28946.261984654237,
        "station_id": "sung wong toi::22.3259::114.1914",
        "station_name": "\u5b8b\u7687\u81fa Sung Wong Toi",
        "travel_time_minutes": 19.38647001131109
      },
      "type": "Feature"
    },
    {
      "geometry": {
        "coordinates": [
          114.1365875,
          22.3388903
        ],
        "type": "Point"
      },
      "properties": {
        "assigned_population": 21272.15580326173,
        "station_id": "mei foo::22.3389::114.1366",
        "station_name": "\u7f8e\u5b5a Mei Foo",
        "travel_time_minutes": 19.814214867538574
      },
      "type": "Feature"
    },
    {
      "geometry": {
        "coordinates": [
          114.1653381,
          22.2793199
        ],
        "type": "Point"
      },
      "properties": {
        "assigned_population": 0.0,
        "station_id": "admiralty::22.2793::114.1653",
        "station_name": "\u91d1\u9418 Admiralty",
        "travel_time_minutes": 19.87159955133704
      },
      "type": "Feature"
    },
    {
      "geometry": {
        "coordinates": [
          114.136522,
          22.3388904
        ],
        "type": "Point"
      },
      "properties": {
        "assigned_population": 87318.52604312888,
        "station_id": "mei foo::22.3389::114.1365",
        "station_name": "\u7f8e\u5b5a Mei Foo",
        "travel_time_minutes": 19.891807246840067
      },
      "type": "Feature"
    },
    {
      "geometry": {
        "coordinates": [
          114.2006248,
          22.3401036
        ],
        "type": "Point"
      },
      "properties": {
        "assigned_population": 26998.348763329133,
        "station_id": "diamond hill::22.3401::114.2006",
        "station_name": "\u947d\u77f3\u5c71 Diamond Hill",
        "travel_time_minutes": 20.02176557907085
      },
      "type": "Feature"
    },
    {
      "geometry": {
        "coordinates": [
          114.1260995,
          22.3482879
        ],
        "type": "Point"
      },
      "properties": {
        "assigned_population": 0.0,
        "station_id": "1::22.3483::114.1261",
        "station_name": "1",
        "travel_time_minutes": 20.10281755927357
      },
      "type": "Feature"
    },
    {
      "geometry": {
        "coordinates": [
          114.1262633,
          22.3484986
        ],
        "type": "Point"
      },
      "properties": {
        "assigned_population": 18309.585295676683,
        "station_id": "lai king::22.3485::114.1263",
        "station_name": "\u8354\u666f Lai King",
        "travel_time_minutes": 20.104681567589786
      },
      "type": "Feature"
    },
    {
      "geometry": {
        "coordinates": [
          114.1261192,
          22.3483333
        ],
        "type": "Point"
      },
      "properties": {
        "assigned_population": 0.0,
        "station_id": "lai king::22.3483::114.1261",
        "station_name": "\u8354\u666f Lai King",
        "travel_time_minutes": 20.170812883762355
      },
      "type": "Feature"
    },
    {
      "geometry": {
        "coordinates": [
          114.1260534,
          22.3482612
        ],
        "type": "Point"
      },
      "properties": {
        "assigned_population": 0.0,
        "station_id": "3::22.3483::114.1261",
        "station_name": "3",
        "travel_time_minutes": 20.172741718416802
      },
      "type": "Feature"
    },
    {
      "geometry": {
        "coordinates": [
          114.1653075,
          22.2790893
        ],
        "type": "Point"
      },
      "properties": {
        "assigned_population": 0.0,
        "station_id": "admiralty::22.2791::114.1653",
        "station_name": "\u91d1\u9418 Admiralty",
        "travel_time_minutes": 20.19452622776598
      },
      "type": "Feature"
    },
    {
      "geometry": {
        "coordinates": [
          114.1261571,
          22.3485268
        ],
        "type": "Point"
      },
      "properties": {
        "assigned_population": 0.0,
        "station_id": "2::22.3485::114.1262",
        "station_name": "2",
        "travel_time_minutes": 20.246720713340427
      },
      "type": "Feature"
    },
    {
      "geometry": {
        "coordinates": [
          114.125984,
          22.3482836
        ],
        "type": "Point"
      },
      "properties": {
        "assigned_population": 68770.93243022596,
        "station_id": "lai king::22.3483::114.126",
        "station_name": "\u8354\u666f Lai King",
        "travel_time_minutes": 20.25141742784492
      },
      "type": "Feature"
    },
    {
      "geometry": {
        "coordinates": [
          114.2019089,
          22.3388988
        ],
        "type": "Point"
      },
      "properties": {
        "assigned_population": 0.0,
        "station_id": "diamond hill::22.3389::114.2019",
        "station_name": "\u947d\u77f3\u5c71 Diamond Hill",
        "travel_time_minutes": 20.289080154014282
      },
      "type": "Feature"
    },
    {
      "geometry": {
        "coordinates": [
          114.12604,
          22.3484137
        ],
        "type": "Point"
      },
      "properties": {
        "assigned_population": 0.0,
        "station_id": "lai king::22.3484::114.126",
        "station_name": "\u8354\u666f Lai King",
        "travel_time_minutes": 20.293669774234804
      },
      "type": "Feature"
    },
    {
      "geometry": {
        "coordinates": [
          114.1260847,
          22.3484784
        ],
        "type": "Point"
      },
      "properties": {
        "assigned_population": 0.0,
        "station_id": "4::22.3485::114.1261",
        "station_name": "4",
        "travel_time_minutes": 20.33598864186056
      },
      "type": "Feature"
    },
    {
      "geometry": {
        "coordinates": [
          114.2084856,
          22.3352653
        ],
        "type": "Point"
      },
      "properties": {
        "assigned_population": 24410.482405569714,
        "station_id": "choi hung::22.3353::114.2085",
        "station_name": "\u5f69\u8679 Choi Hung",
        "travel_time_minutes": 21.08432902189833
      },
      "type": "Feature"
    },
    {
      "geometry": {
        "coordinates": [
          114.1658331,
          22.2785137
        ],
        "type": "Point"
      },
      "properties": {
        "assigned_population": 20238.87628088151,
        "station_id": "admiralty::22.2785::114.1658",
        "station_name": "\u91d1\u9418 Admiralty",
        "travel_time_minutes": 21.160398575452785
      },
      "type": "Feature"
    },
    {
      "geometry": {
        "coordinates": [
          114.1659493,
          22.2784725
        ],
        "type": "Point"
      },
      "properties": {
        "assigned_population": 0.0,
        "station_id": "admiralty::22.2785::114.1659",
        "station_name": "\u91d1\u9418 Admiralty",
        "travel_time_minutes": 21.28767156618591
      },
      "type": "Feature"
    },
    {
      "geometry": {
        "coordinates": [
          114.1785062,
          22.3731177
        ],
        "type": "Point"
      },
      "properties": {
        "assigned_population": 74231.96423526415,
        "station_id": "tai wai::22.3731::114.1785",
        "station_name": "\u5927\u570d Tai Wai",
        "travel_time_minutes": 21.50452534219386
      },
      "type": "Feature"
    },
    {
      "geometry": {
        "coordinates": [
          114.1660981,
          22.2783603
        ],
        "type": "Point"
      },
      "properties": {
        "assigned_population": 0.0,
        "station_id": "admiralty::22.2784::114.1661",
        "station_name": "\u91d1\u9418 Admiralty",
        "travel_time_minutes": 21.52522399471368
      },
      "type": "Feature"
    },
    {
      "geometry": {
        "coordinates": [
          114.2099149,
          22.3343989
        ],
        "type": "Point"
      },
      "properties": {
        "assigned_population": 144219.35619280685,
        "station_id": "choi hung::22.3344::114.2099",
        "station_name": "\u5f69\u8679 Choi Hung",
        "travel_time_minutes": 21.56986157671399
      },
      "type": "Feature"
    },
    {
      "geometry": {
        "coordinates": [
          114.1663834,
          22.2785107
        ],
        "type": "Point"
      },
      "properties": {
        "assigned_population": 24694.665066734597,
        "station_id": "admiralty::22.2785::114.1664",
        "station_name": "\u91d1\u9418 Admiralty",
        "travel_time_minutes": 21.62446955806266
      },
      "type": "Feature"
    },
    {
      "geometry": {
        "coordinates": [
          114.1757084,
          22.281665
        ],
        "type": "Point"
      },
      "properties": {
        "assigned_population": 0.0,
        "station_id": "exhibition centre::22.2817::114.1757",
        "station_name": "\u6703\u5c55 Exhibition Centre",
        "travel_time_minutes": 21.720850179597523
      },
      "type": "Feature"
    },
    {
      "geometry": {
        "coordinates": [
          114.1992073,
          22.3303099
        ],
        "type": "Point"
      },
      "properties": {
        "assigned_population": 0.0,
        "station_id": "kai tak::22.3303::114.1992",
        "station_name": "\u555f\u5fb7 Kai Tak",
        "travel_time_minutes": 21.788422810388766
      },
      "type": "Feature"
    },
    {
      "geometry": {
        "coordinates": [
          114.1593311,
          22.2815012
        ],
        "type": "Point"
      },
      "properties": {
        "assigned_population": 23444.85741765301,
        "station_id": "central::22.2815::114.1593",
        "station_name": "\u4e2d\u74b0 Central",
        "travel_time_minutes": 21.79330489391704
      },
      "type": "Feature"
    },
    {
      "geometry": {
        "coordinates": [
          114.1993488,
          22.3301957
        ],
        "type": "Point"
      },
      "properties": {
        "assigned_population": 28279.865941797638,
        "station_id": "kai tak::22.3302::114.1993",
        "station_name": "\u555f\u5fb7 Kai Tak",
        "travel_time_minutes": 21.80452847038899
      },
      "type": "Feature"
    },
    {
      "geometry": {
        "coordinates": [
          114.1787838,
          22.3728022
        ],
        "type": "Point"
      },
      "properties": {
        "assigned_population": 22842.117095305126,
        "station_id": "tai wai::22.3728::114.1788",
        "station_name": "\u5927\u570d Tai Wai",
        "travel_time_minutes": 22.06986763798774
      },
      "type": "Feature"
    },
    {
      "geometry": {
        "coordinates": [
          114.1667055,
          22.3042568
        ],
        "type": "Point"
      },
      "properties": {
        "assigned_population": 0.0,
        "station_id": "austin::22.3043::114.1667",
        "station_name": "\u67ef\u58eb\u7538 Austin",
        "travel_time_minutes": 22.13144044341565
      },
      "type": "Feature"
    },
    {
      "geometry": {
        "coordinates": [
          114.166541,
          22.3041946
        ],
        "type": "Point"
      },
      "properties": {
        "assigned_population": 0.0,
        "station_id": "austin::22.3042::114.1665",
        "station_name": "\u67ef\u58eb\u7538 Austin",
        "travel_time_minutes": 22.168535383553742
      },
      "type": "Feature"
    },
    {
      "geometry": {
        "coordinates": [
          114.1729643,
          22.2775557
        ],
        "type": "Point"
      },
      "properties": {
        "assigned_population": 42836.48101616116,
        "station_id": "wan chai::22.2776::114.173",
        "station_name": "\u7063\u4ed4 Wan Chai",
        "travel_time_minutes": 22.36703347313083
      },
      "type": "Feature"
    },
    {
      "geometry": {
        "coordinates": [
          114.1578631,
          22.281824
        ],
        "type": "Point"
      },
      "properties": {
        "assigned_population": 18481.756680768573,
        "station_id": "central::22.2818::114.1579",
        "station_name": "\u4e2d\u74b0 Central",
        "travel_time_minutes": 22.39887078259244
      },
      "type": "Feature"
    },
    {
      "geometry": {
        "coordinates": [
          114.1278299,
          22.3569016
        ],
        "type": "Point"
      },
      "properties": {
        "assigned_population": 13952.44026523527,
        "station_id": "kwai fong::22.3569::114.1278",
        "station_name": "\u8475\u82b3 Kwai Fong",
        "travel_time_minutes": 22.63056254667366
      },
      "type": "Feature"
    },
    {
      "geometry": {
        "coordinates": [
          114.1278558,
          22.3568855
        ],
        "type": "Point"
      },
      "properties": {
        "assigned_population": 0.0,
        "station_id": "kwai fong::22.3569::114.1279",
        "station_name": "\u8475\u82b3 Kwai Fong",
        "travel_time_minutes": 22.66563809541578
      },
      "type": "Feature"
    },
    {
      "geometry": {
        "coordinates": [
          114.186095,
          22.374738
        ],
        "type": "Point"
      },
      "properties": {
        "assigned_population": 0.0,
        "station_id": "che kung temple::22.3747::114.1861",
        "station_name": "\u8eca\u516c\u5edf Che Kung Temple",
        "travel_time_minutes": 24.19982791035819
      },
      "type": "Feature"
    },
    {
      "geometry": {
        "coordinates": [
          114.1860973,
          22.3748388
        ],
        "type": "Point"
      },
      "properties": {
        "assigned_population": 0.0,
        "station_id": "1::22.3748::114.1861",
        "station_name": "1",
        "travel_time_minutes": 24.205802195360377
      },
      "type": "Feature"
    },
    {
      "geometry": {
        "coordinates": [
          114.1860976,
          22.3747809
        ],
        "type": "Point"
      },
      "properties": {
        "assigned_population": 0.0,
        "station_id": "che kung temple::22.3748::114.1861",
        "station_name": "\u8eca\u516c\u5edf Che Kung Temple",
        "travel_time_minutes": 24.259549758015233
      },
      "type": "Feature"
    },
    {
      "geometry": {
        "coordinates": [
          114.1860905,
          22.3746909
        ],
        "type": "Point"
      },
      "properties": {
        "assigned_population": 47392.63242939265,
        "station_id": "2::22.3747::114.1861",
        "station_name": "2",
        "travel_time_minutes": 24.265548922777416
      },
      "type": "Feature"
    },
    {
      "geometry": {
        "coordinates": [
          114.2140058,
          22.323379
        ],
        "type": "Point"
      },
      "properties": {
        "assigned_population": 26219.47414933165,
        "station_id": "kowloon bay::22.3234::114.214",
        "station_name": "\u4e5d\u9f8d\u7063 Kowloon Bay",
        "travel_time_minutes": 24.372849679261186
      },
      "type": "Feature"
    },
    {
      "geometry": {
        "coordinates": [
          114.1521488,
          22.2865033
        ],
        "type": "Point"
      },
      "properties": {
        "assigned_population": 21386.372442795247,
        "station_id": "sheung wan::22.2865::114.1521",
        "station_name": "\u4e0a\u74b0 Sheung Wan",
        "travel_time_minutes": 24.534370065546668
      },
      "type": "Feature"
    },
    {
      "geometry": {
        "coordinates": [
          114.1521622,
          22.2865578
        ],
        "type": "Point"
      },
      "properties": {
        "assigned_population": 23925.75940917586,
        "station_id": "sheung wan::22.2866::114.1522",
        "station_name": "\u4e0a\u74b0 Sheung Wan",
        "travel_time_minutes": 24.53966854544121
      },
      "type": "Feature"
    },
    {
      "geometry": {
        "coordinates": [
          114.1539138,
          22.3264779
        ],
        "type": "Point"
      },
      "properties": {
        "assigned_population": 26993.387854696768,
        "station_id": "nam cheong::22.3265::114.1539",
        "station_name": "\u5357\u660c Nam Cheong",
        "travel_time_minutes": 24.541965510578915
      },
      "type": "Feature"
    },
    {
      "geometry": {
        "coordinates": [
          114.2141658,
          22.3235575
        ],
        "type": "Point"
      },
      "properties": {
        "assigned_population": 41239.05522956217,
        "station_id": "kowloon bay::22.3236::114.2142",
        "station_name": "\u4e5d\u9f8d\u7063 Kowloon Bay",
        "travel_time_minutes": 24.582835574061473
      },
      "type": "Feature"
    },
    {
      "geometry": {
        "coordinates": [
          114.1538654,
          22.326413
        ],
        "type": "Point"
      },
      "properties": {
        "assigned_population": 0.0,
        "station_id": "1::22.3264::114.1539",
        "station_name": "1",
        "travel_time_minutes": 24.62983067121824
      },
      "type": "Feature"
    },
    {
      "geometry": {
        "coordinates": [
          114.1539917,
          22.3265464
        ],
        "type": "Point"
      },
      "properties": {
        "assigned_population": 0.0,
        "station_id": "2::22.3265::114.154",
        "station_name": "2",
        "travel_time_minutes": 24.680157053080016
      },
      "type": "Feature"
    },
    {
      "geometry": {
        "coordinates": [
          114.1873853,
          22.3824265
        ],
        "type": "Point"
      },
      "properties": {
        "assigned_population": 0.0,
        "station_id": "3::22.3824::114.1874",
        "station_name": "3",
        "travel_time_minutes": 24.690145826056895
      },
      "type": "Feature"
    },
    {
      "geometry": {
        "coordinates": [
          114.1873999,
          22.3824174
        ],
        "type": "Point"
      },
      "properties": {
        "assigned_population": 20309.987919404815,
        "station_id": "4::22.3824::114.1874",
        "station_name": "4",
        "travel_time_minutes": 24.69056109481302
      },
      "type": "Feature"
    },
    {
      "geometry": {
        "coordinates": [
          114.131206,
          22.3630265
        ],
        "type": "Point"
      },
      "properties": {
        "assigned_population": 110387.66559239422,
        "station_id": "kwai hing::22.363::114.1312",
        "station_name": "\u8475\u8208 Kwai Hing",
        "travel_time_minutes": 24.72957968871685
      },
      "type": "Feature"
    },
    {
      "geometry": {
        "coordinates": [
          114.1538022,
          22.326347
        ],
        "type": "Point"
      },
      "properties": {
        "assigned_population": 0.0,
        "station_id": "4::22.3263::114.1538",
        "station_name": "4",
        "travel_time_minutes": 24.752380439255017
      },
      "type": "Feature"
    },
    {
      "geometry": {
        "coordinates": [
          114.1537684,
          22.3263199
        ],
        "type": "Point"
      },
      "properties": {
        "assigned_population": 0.0,
        "station_id": "nam cheong::22.3263::114.1538",
        "station_name": "\u5357\u660c Nam Cheong",
        "travel_time_minutes": 24.809551110187424
      },
      "type": "Feature"
    },
    {
      "geometry": {
        "coordinates": [
          114.1872994,
          22.3824605
        ],
        "type": "Point"
      },
      "properties": {
        "assigned_population": 0.0,
        "station_id": "2::22.3825::114.1873",
        "station_name": "2",
        "travel_time_minutes": 24.810235795954107
      },
      "type": "Feature"
    },
    {
      "geometry": {
        "coordinates": [
          114.1872887,
          22.382468
        ],
        "type": "Point"
      },
      "properties": {
        "assigned_population": 17109.71064101303,
        "station_id": "1::22.3825::114.1873",
        "station_name": "1",
        "travel_time_minutes": 24.82704395845289
      },
      "type": "Feature"
    },
    {
      "geometry": {
        "coordinates": [
          114.1074312,
          22.3583861
        ],
        "type": "Point"
      },
      "properties": {
        "assigned_population": 35366.619824040215,
        "station_id": "tsing yi::22.3584::114.1074",
        "station_name": "\u9752\u8863 Tsing Yi",
        "travel_time_minutes": 24.84304929847152
      },
      "type": "Feature"
    },
    {
      "geometry": {
        "coordinates": [
          114.1074211,
          22.358341
        ],
        "type": "Point"
      },
      "properties": {
        "assigned_population": 117125.05936292146,
        "station_id": "tsing yi::22.3583::114.1074",
        "station_name": "\u9752\u8863 Tsing Yi",
        "travel_time_minutes": 24.907065782754604
      },
      "type": "Feature"
    },
    {
      "geometry": {
        "coordinates": [
          114.1708892,
          22.3639523
        ],
        "type": "Point"
      },
      "properties": {
        "assigned_population": 25309.023573825194,
        "station_id": "2::22.364::114.1709",
        "station_name": "2",
        "travel_time_minutes": 25.071082442441064
      },
      "type": "Feature"
    },
    {
      "geometry": {
        "coordinates": [
          114.1707186,
          22.3638205
        ],
        "type": "Point"
      },
      "properties": {
        "assigned_population": 23624.466807067874,
        "station_id": "hin keng::22.3638::114.1707",
        "station_name": "\u986f\u5f91 Hin Keng",
        "travel_time_minutes": 25.110745081582582
      },
      "type": "Feature"
    },
    {
      "geometry": {
        "coordinates": [
          114.1875139,
          22.3829192
        ],
        "type": "Point"
      },
      "properties": {
        "assigned_population": 64110.20689586614,
        "station_id": "sha tin::22.3829::114.1875",
        "station_name": "\u6c99\u7530 Sha Tin",
        "travel_time_minutes": 25.118562191796517
      },
      "type": "Feature"
    },
    {
      "geometry": {
        "coordinates": [
          114.1876187,
          22.3828531
        ],
        "type": "Point"
      },
      "properties": {
        "assigned_population": 0.0,
        "station_id": "sha tin::22.3829::114.1876",
        "station_name": "\u6c99\u7530 Sha Tin",
        "travel_time_minutes": 25.12109633203168
      },
      "type": "Feature"
    },
    {
      "geometry": {
        "coordinates": [
          114.1535975,
          22.3261443
        ],
        "type": "Point"
      },
      "properties": {
        "assigned_population": 0.0,
        "station_id": "nam cheong::22.3261::114.1536",
        "station_name": "\u5357\u660c Nam Cheong",
        "travel_time_minutes": 25.137895694143005
      },
      "type": "Feature"
    },
    {
      "geometry": {
        "coordinates": [
          114.1876419,
          22.3828402
        ],
        "type": "Point"
      },
      "properties": {
        "assigned_population": 0.0,
        "station_id": "sha tin::22.3828::114.1876",
        "station_name": "\u6c99\u7530 Sha Tin",
        "travel_time_minutes": 25.155889284626245
      },
      "type": "Feature"
    },
    {
      "geometry": {
        "coordinates": [
          114.1707728,
          22.3638076
        ],
        "type": "Point"
      },
      "properties": {
        "assigned_population": 52185.830939903855,
        "station_id": "hin keng::22.3638::114.1708",
        "station_name": "\u986f\u5f91 Hin Keng",
        "travel_time_minutes": 25.182683775813622
      },
      "type": "Feature"
    },
    {
      "geometry": {
        "coordinates": [
          114.1840143,
          22.2801023
        ],
        "type": "Point"
      },
      "properties": {
        "assigned_population": 46036.85989276263,
        "station_id": "causeway bay::22.2801::114.184",
        "station_name": "\u9285\u947c\u7063 Causeway Bay",
        "travel_time_minutes": 25.18476167860007
      },
      "type": "Feature"
    },
    {
      "geometry": {
        "coordinates": [
          114.1707181,
          22.3639994
        ],
        "type": "Point"
      },
      "properties": {
        "assigned_population": 43320.30809028138,
        "station_id": "1::22.364::114.1707",
        "station_name": "1",
        "travel_time_minutes": 25.3005499552285
      },
      "type": "Feature"
    },
    {
      "geometry": {
        "coordinates": [
          114.1535277,
          22.3260374
        ],
        "type": "Point"
      },
      "properties": {
        "assigned_population": 51714.61796999275,
        "station_id": "3::22.326::114.1535",
        "station_name": "3",
        "travel_time_minutes": 25.308853488278434
      },
      "type": "Feature"
    },
    {
      "geometry": {
        "coordinates": [
          114.1877677,
          22.3827727
        ],
        "type": "Point"
      },
      "properties": {
        "assigned_population": 0.0,
        "station_id": "sha tin::22.3828::114.1878",
        "station_name": "\u6c99\u7530 Sha Tin",
        "travel_time_minutes": 25.342816013027267
      },
      "type": "Feature"
    },
    {
      "geometry": {
        "coordinates": [
          114.194839,
          22.3768367
        ],
        "type": "Point"
      },
      "properties": {
        "assigned_population": 44948.47457791379,
        "station_id": "sha tin wai::22.3768::114.1948",
        "station_name": "\u6c99\u7530\u570d Sha Tin Wai",
        "travel_time_minutes": 26.657874647843478
      },
      "type": "Feature"
    },
    {
      "geometry": {
        "coordinates": [
          114.1949668,
          22.3770559
        ],
        "type": "Point"
      },
      "properties": {
        "assigned_population": 0.0,
        "station_id": "1::22.3771::114.195",
        "station_name": "1",
        "travel_time_minutes": 26.679649706816416
      },
      "type": "Feature"
    },
    {
      "geometry": {
        "coordinates": [
          114.1584417,
          22.2849294
        ],
        "type": "Point"
      },
      "properties": {
        "assigned_population": 0.0,
        "station_id": "3::22.2849::114.1584",
        "station_name": "3",
        "travel_time_minutes": 26.69366462992253
      },
      "type": "Feature"
    },
    {
      "geometry": {
        "coordinates": [
          114.1583038,
          22.2849181
        ],
        "type": "Point"
      },
      "properties": {
        "assigned_population": 0.0,
        "station_id": "hong kong::22.2849::114.1583",
        "station_name": "\u9999\u6e2f Hong Kong",
        "travel_time_minutes": 26.722940286079144
      },
      "type": "Feature"
    },
    {
      "geometry": {
        "coordinates": [
          114.1950084,
          22.377009
        ],
        "type": "Point"
      },
      "properties": {
        "assigned_population": 0.0,
        "station_id": "2::22.377::114.195",
        "station_name": "2",
        "travel_time_minutes": 26.76396005636345
      },
      "type": "Feature"
    },
    {
      "geometry": {
        "coordinates": [
          114.1585064,
          22.2850303
        ],
        "type": "Point"
      },
      "properties": {
        "assigned_population": 0.0,
        "station_id": "4::22.285::114.1585",
        "station_name": "4",
        "travel_time_minutes": 26.811897325363155
      },
      "type": "Feature"
    },
    {
      "geometry": {
        "coordinates": [
          114.1583655,
          22.2850161
        ],
        "type": "Point"
      },
      "properties": {
        "assigned_population": 0.0,
        "station_id": "hong kong::22.285::114.1584",
        "station_name": "\u9999\u6e2f Hong Kong",
        "travel_time_minutes": 26.834167329095433
      },
      "type": "Feature"
    },
    {
      "geometry": {
        "coordinates": [
          114.1947694,
          22.3769634
        ],
        "type": "Point"
      },
      "properties": {
        "assigned_population": 0.0,
        "station_id": "sha tin wai::22.377::114.1948",
        "station_name": "\u6c99\u7530\u570d Sha Tin Wai",
        "travel_time_minutes": 26.85539721818155
      },
      "type": "Feature"
    },
    {
      "geometry": {
        "coordinates": [
          114.2191447,
          22.3153219
        ],
        "type": "Point"
      },
      "properties": {
        "assigned_population": 49116.83694627277,
        "station_id": "ngau tau kok::22.3153::114.2191",
        "station_name": "\u725b\u982d\u89d2 Ngau Tau Kok",
        "travel_time_minutes": 26.958551439536798
      },
      "type": "Feature"
    },
    {
      "geometry": {
        "coordinates": [
          114.1584546,
          22.2851469
        ],
        "type": "Point"
      },
      "properties": {
        "assigned_population": 26225.06127469099,
        "station_id": "hong kong::22.2851::114.1585",
        "station_name": "\u9999\u6e2f Hong Kong",
        "travel_time_minutes": 26.984475089538865
      },
      "type": "Feature"
    },
    {
      "geometry": {
        "coordinates": [
          114.1427807,
          22.2854233
        ],
        "type": "Point"
      },
      "properties": {
        "assigned_population": 0.0,
        "station_id": "sai ying pun::22.2854::114.1428",
        "station_name": "\u897f\u71df\u76e4 Sai Ying Pun",
        "travel_time_minutes": 26.998475461717483
      },
      "type": "Feature"
    },
    {
      "geometry": {
        "coordinates": [
          114.1426865,
          22.2855449
        ],
        "type": "Point"
      },
      "properties": {
        "assigned_population": 43686.55348875064,
        "station_id": "sai ying pun::22.2855::114.1427",
        "station_name": "\u897f\u71df\u76e4 Sai Ying Pun",
        "travel_time_minutes": 27.02160107920096
      },
      "type": "Feature"
    },
    {
      "geometry": {
        "coordinates": [
          114.2191988,
          22.3154285
        ],
        "type": "Point"
      },
      "properties": {
        "assigned_population": 22966.593038218492,
        "station_id": "ngau tau kok::22.3154::114.2192",
        "station_name": "\u725b\u982d\u89d2 Ngau Tau Kok",
        "travel_time_minutes": 27.122236144674964
      },
      "type": "Feature"
    },
    {
      "geometry": {
        "coordinates": [
          114.1251194,
          22.3706945
        ],
        "type": "Point"
      },
      "properties": {
        "assigned_population": 14664.84086165303,
        "station_id": "tai wo hau::22.3707::114.1251",
        "station_name": "\u5927\u7aa9\u53e3 Tai Wo Hau",
        "travel_time_minutes": 27.34610678541009
      },
      "type": "Feature"
    },
    {
      "geometry": {
        "coordinates": [
          114.125116,
          22.3708019
        ],
        "type": "Point"
      },
      "properties": {
        "assigned_population": 95963.96984642792,
        "station_id": "tai wo hau::22.3708::114.1251",
        "station_name": "\u5927\u7aa9\u53e3 Tai Wo Hau",
        "travel_time_minutes": 27.399265924810557
      },
      "type": "Feature"
    },
    {
      "geometry": {
        "coordinates": [
          114.1920333,
          22.2821959
        ],
        "type": "Point"
      },
      "properties": {
        "assigned_population": 83586.16699534025,
        "station_id": "tin hau::22.2822::114.192",
        "station_name": "\u5929\u540e Tin Hau",
        "travel_time_minutes": 27.447657628570283
      },
      "type": "Feature"
    },
    {
      "geometry": {
        "coordinates": [
          114.1604114,
          22.317703
        ],
        "type": "Point"
      },
      "properties": {
        "assigned_population": 0.0,
        "station_id": "olympic::22.3177::114.1604",
        "station_name": "\u5967\u904b Olympic",
        "travel_time_minutes": 27.579961472358775
      },
      "type": "Feature"
    },
    {
      "geometry": {
        "coordinates": [
          114.1603353,
          22.3177356
        ],
        "type": "Point"
      },
      "properties": {
        "assigned_population": 29939.183196838523,
        "station_id": "2::22.3177::114.1603",
        "station_name": "2",
        "travel_time_minutes": 27.68779451572489
      },
      "type": "Feature"
    },
    {
      "geometry": {
        "coordinates": [
          114.1601985,
          22.3176929
        ],
        "type": "Point"
      },
      "properties": {
        "assigned_population": 0.0,
        "station_id": "1::22.3177::114.1602",
        "station_name": "1",
        "travel_time_minutes": 27.854072238101846
      },
      "type": "Feature"
    },
    {
      "geometry": {
        "coordinates": [
          114.1601536,
          22.3176404
        ],
        "type": "Point"
      },
      "properties": {
        "assigned_population": 23847.191310813207,
        "station_id": "olympic::22.3176::114.1602",
        "station_name": "\u5967\u904b Olympic",
        "travel_time_minutes": 27.92267515387315
      },
      "type": "Feature"
    },
    {
      "geometry": {
        "coordinates": [
          114.1100671,
          22.3682204
        ],
        "type": "Point"
      },
      "properties": {
        "assigned_population": 31129.243363100282,
        "station_id": "tsuen wan west::22.3682::114.1101",
        "station_name": "\u8343\u7063\u897f Tsuen Wan West",
        "travel_time_minutes": 28.066771203059318
      },
      "type": "Feature"
    },
    {
      "geometry": {
        "coordinates": [
          114.174331,
          22.2487379
        ],
        "type": "Point"
      },
      "properties": {
        "assigned_population": 52949.78479491493,
        "station_id": "2::22.2487::114.1743",
        "station_name": "2",
        "travel_time_minutes": 28.06765033105025
      },
      "type": "Feature"
    },
    {
      "geometry": {
        "coordinates": [
          114.1100226,
          22.3681757
        ],
        "type": "Point"
      },
      "properties": {
        "assigned_population": 67000.43498263428,
        "station_id": "tsuen wan west::22.3682::114.11",
        "station_name": "\u8343\u7063\u897f Tsuen Wan West",
        "travel_time_minutes": 28.13517604267219
      },
      "type": "Feature"
    },
    {
      "geometry": {
        "coordinates": [
          114.174374,
          22.2486575
        ],
        "type": "Point"
      },
      "properties": {
        "assigned_population": 0.0,
        "station_id": "ocean park::22.2487::114.1744",
        "station_name": "\u6d77\u6d0b\u516c\u5712 Ocean Park",
        "travel_time_minutes": 28.19234313307859
      },
      "type": "Feature"
    },
    {
      "geometry": {
        "coordinates": [
          114.1743969,
          22.2486218
        ],
        "type": "Point"
      },
      "properties": {
        "assigned_population": 41048.051741264586,
        "station_id": "1::22.2486::114.1744",
        "station_name": "1",
        "travel_time_minutes": 28.249935841306275
      },
      "type": "Feature"
    },
    {
      "geometry": {
        "coordinates": [
          114.1981852,
          22.3954451
        ],
        "type": "Point"
      },
      "properties": {
        "assigned_population": 43839.68404884782,
        "station_id": "fo tan::22.3954::114.1982",
        "station_name": "\u706b\u70ad Fo Tan",
        "travel_time_minutes": 28.78401749142263
      },
      "type": "Feature"
    },
    {
      "geometry": {
        "coordinates": [
          114.1982772,
          22.3953935
        ],
        "type": "Point"
      },
      "properties": {
        "assigned_population": 0.0,
        "station_id": "fo tan::22.3954::114.1983",
        "station_name": "\u706b\u70ad Fo Tan",
        "travel_time_minutes": 28.786299908187523
      },
      "type": "Feature"
    },
    {
      "geometry": {
        "coordinates": [
          114.1370765,
          22.284241
        ],
        "type": "Point"
      },
      "properties": {
        "assigned_population": 34925.38457547967,
        "station_id": "hku::22.2842::114.1371",
        "station_name": "\u9999\u6e2f\u5927\u5b78 HKU",
        "travel_time_minutes": 28.8218521870446
      },
      "type": "Feature"
    },
    {
      "geometry": {
        "coordinates": [
          114.198366,
          22.3953371
        ],
        "type": "Point"
      },
      "properties": {
        "assigned_population": 17567.677502990882,
        "station_id": "fo tan::22.3953::114.1984",
        "station_name": "\u706b\u70ad Fo Tan",
        "travel_time_minutes": 28.924748812445394
      },
      "type": "Feature"
    },
    {
      "geometry": {
        "coordinates": [
          114.1983294,
          22.3956017
        ],
        "type": "Point"
      },
      "properties": {
        "assigned_population": 13288.828703441863,
        "station_id": "1::22.3956::114.1983",
        "station_name": "1",
        "travel_time_minutes": 29.069881203646435
      },
      "type": "Feature"
    },
    {
      "geometry": {
        "coordinates": [
          114.1983546,
          22.3955877
        ],
        "type": "Point"
      },
      "properties": {
        "assigned_population": 0.0,
        "station_id": "2::22.3956::114.1984",
        "station_name": "2",
        "travel_time_minutes": 29.073969056430137
      },
      "type": "Feature"
    },
    {
      "geometry": {
        "coordinates": [
          114.1984398,
          22.3955947
        ],
        "type": "Point"
      },
      "properties": {
        "assigned_population": 0.0,
        "station_id": "3::22.3956::114.1984",
        "station_name": "3",
        "travel_time_minutes": 29.084247985542927
      },
      "type": "Feature"
    },
    {
      "geometry": {
        "coordinates": [
          114.1984619,
          22.3955822
        ],
        "type": "Point"
      },
      "properties": {
        "assigned_population": 0.0,
        "station_id": "4::22.3956::114.1985",
        "station_name": "4",
        "travel_time_minutes": 29.084791552145838
      },
      "type": "Feature"
    },
    {
      "geometry": {
        "coordinates": [
          114.1354563,
          22.2839642
        ],
        "type": "Point"
      },
      "properties": {
        "assigned_population": 73493.13196658995,
        "station_id": "hku::22.284::114.1355",
        "station_name": "\u9999\u6e2f\u5927\u5b78 HKU",
        "travel_time_minutes": 29.10884098596937
      },
      "type": "Feature"
    },
    {
      "geometry": {
        "coordinates": [
          114.2263795,
          22.3121569
        ],
        "type": "Point"
      },
      "properties": {
        "assigned_population": 41790.49366446528,
        "station_id": "kwun tong::22.3122::114.2264",
        "station_name": "\u89c0\u5858 Kwun Tong",
        "travel_time_minutes": 29.161343827928413
      },
      "type": "Feature"
    },
    {
      "geometry": {
        "coordinates": [
          114.1934716,
          22.2875065
        ],
        "type": "Point"
      },
      "properties": {
        "assigned_population": 0.0,
        "station_id": "fortress hill::22.2875::114.1935",
        "station_name": "\u70ae\u53f0\u5c71 Fortress Hill",
        "travel_time_minutes": 29.271962283785154
      },
      "type": "Feature"
    },
    {
      "geometry": {
        "coordinates": [
          114.1933631,
          22.2875389
        ],
        "type": "Point"
      },
      "properties": {
        "assigned_population": 27339.05027780682,
        "station_id": "fortress hill::22.2875::114.1934",
        "station_name": "\u70ae\u53f0\u5c71 Fortress Hill",
        "travel_time_minutes": 29.27353863317312
      },
      "type": "Feature"
    },
    {
      "geometry": {
        "coordinates": [
          114.2264543,
          22.3122845
        ],
        "type": "Point"
      },
      "properties": {
        "assigned_population": 35525.09120419026,
        "station_id": "kwun tong::22.3123::114.2265",
        "station_name": "\u89c0\u5858 Kwun Tong",
        "travel_time_minutes": 29.326672775169392
      },
      "type": "Feature"
    },
    {
      "geometry": {
        "coordinates": [
          114.203784,
          22.3830131
        ],
        "type": "Point"
      },
      "properties": {
        "assigned_population": 35485.97243117026,
        "station_id": "city one::22.383::114.2038",
        "station_name": "\u7b2c\u4e00\u57ce City One",
        "travel_time_minutes": 29.494739837440903
      },
      "type": "Feature"
    },
    {
      "geometry": {
        "coordinates": [
          114.1178364,
          22.3736278
        ],
        "type": "Point"
      },
      "properties": {
        "assigned_population": 12382.723254135139,
        "station_id": "tsuen wan::22.3736::114.1178",
        "station_name": "\u8343\u7063 Tsuen Wan",
        "travel_time_minutes": 29.537562587546073
      },
      "type": "Feature"
    },
    {
      "geometry": {
        "coordinates": [
          114.2035236,
          22.3829069
        ],
        "type": "Point"
      },
      "properties": {
        "assigned_population": 19536.688258145616,
        "station_id": "1::22.3829::114.2035",
        "station_name": "1",
        "travel_time_minutes": 29.575996698560726
      },
      "type": "Feature"
    },
    {
      "geometry": {
        "coordinates": [
          114.117852,
          22.373658
        ],
        "type": "Point"
      },
      "properties": {
        "assigned_population": 105284.91843339516,
        "station_id": "tsuen wan::22.3737::114.1179",
        "station_name": "\u8343\u7063 Tsuen Wan",
        "travel_time_minutes": 29.581565847789328
      },
      "type": "Feature"
    },
    {
      "geometry": {
        "coordinates": [
          114.2035684,
          22.3828662
        ],
        "type": "Point"
      },
      "properties": {
        "assigned_population": 19714.347763475802,
        "station_id": "2::22.3829::114.2036",
        "station_name": "2",
        "travel_time_minutes": 29.656714813405237
      },
      "type": "Feature"
    },
    {
      "geometry": {
        "coordinates": [
          114.2036765,
          22.3831084
        ],
        "type": "Point"
      },
      "properties": {
        "assigned_population": 0.0,
        "station_id": "city one::22.3831::114.2037",
        "station_name": "\u7b2c\u4e00\u57ce City One",
        "travel_time_minutes": 29.686140767408247
      },
      "type": "Feature"
    },
    {
      "geometry": {
        "coordinates": [
          114.202847,
          22.4004961
        ],
        "type": "Point"
      },
      "properties": {
        "assigned_population": 13687.702566872735,
        "station_id": "racecourse::22.4005::114.2028",
        "station_name": "\u99ac\u5834 Racecourse",
        "travel_time_minutes": 30.08593861959874
      },
      "type": "Feature"
    },
    {
      "geometry": {
        "coordinates": [
          114.2028994,
          22.4004756
        ],
        "type": "Point"
      },
      "properties": {
        "assigned_population": 0.0,
        "station_id": "racecourse::22.4005::114.2029",
        "station_name": "\u99ac\u5834 Racecourse",
        "travel_time_minutes": 30.15905600951276
      },
      "type": "Feature"
    },
    {
      "geometry": {
        "coordinates": [
          114.1674998,
          22.2479107
        ],
        "type": "Point"
      },
      "properties": {
        "assigned_population": 0.0,
        "station_id": "2::22.2479::114.1675",
        "station_name": "2",
        "travel_time_minutes": 30.199390063348236
      },
      "type": "Feature"
    },
    {
      "geometry": {
        "coordinates": [
          114.1674908,
          22.2479464
        ],
        "type": "Point"
      },
      "properties": {
        "assigned_population": 44639.11151703976,
        "station_id": "wong chuk hang::22.2479::114.1675",
        "station_name": "\u9ec3\u7af9\u5751 Wong Chuk Hang",
        "travel_time_minutes": 30.250343680581146
      },
      "type": "Feature"
    },
    {
      "geometry": {
        "coordinates": [
          114.2029649,
          22.4004416
        ],
        "type": "Point"
      },
      "properties": {
        "assigned_population": 14746.229865959576,
        "station_id": "racecourse::22.4004::114.203",
        "station_name": "\u99ac\u5834 Racecourse",
        "travel_time_minutes": 30.255328708474778
      },
      "type": "Feature"
    },
    {
      "geometry": {
        "coordinates": [
          114.1675268,
          22.2478225
        ],
        "type": "Point"
      },
      "properties": {
        "assigned_population": 0.0,
        "station_id": "wong chuk hang::22.2478::114.1675",
        "station_name": "\u9ec3\u7af9\u5751 Wong Chuk Hang",
        "travel_time_minutes": 30.257487052014607
      },
      "type": "Feature"
    },
    {
      "geometry": {
        "coordinates": [
          114.1675103,
          22.2478695
        ],
        "type": "Point"
      },
      "properties": {
        "assigned_population": 0.0,
        "station_id": "1::22.2479::114.1675",
        "station_name": "1",
        "travel_time_minutes": 30.25822701269135
      },
      "type": "Feature"
    },
    {
      "geometry": {
        "coordinates": [
          114.202806,
          22.4002964
        ],
        "type": "Point"
      },
      "properties": {
        "assigned_population": 0.0,
        "station_id": "2::22.4003::114.2028",
        "station_name": "2",
        "travel_time_minutes": 30.299346632483328
      },
      "type": "Feature"
    },
    {
      "geometry": {
        "coordinates": [
          114.2027779,
          22.4003112
        ],
        "type": "Point"
      },
      "properties": {
        "assigned_population": 15584.594046111843,
        "station_id": "1::22.4003::114.2028",
        "station_name": "1",
        "travel_time_minutes": 30.340905134881105
      },
      "type": "Feature"
    },
    {
      "geometry": {
        "coordinates": [
          114.1616963,
          22.3048965
        ],
        "type": "Point"
      },
      "properties": {
        "assigned_population": 28337.72235930205,
        "station_id": "kowloon::22.3049::114.1617",
        "station_name": "\u4e5d\u9f8d Kowloon",
        "travel_time_minutes": 30.969250019043574
      },
      "type": "Feature"
    },
    {
      "geometry": {
        "coordinates": [
          114.1615535,
          22.3049472
        ],
        "type": "Point"
      },
      "properties": {
        "assigned_population": 0.0,
        "station_id": "kowloon::22.3049::114.1616",
        "station_name": "\u4e5d\u9f8d Kowloon",
        "travel_time_minutes": 31.165939259463787
      },
      "type": "Feature"
    },
    {
      "geometry": {
        "coordinates": [
          114.1615073,
          22.3049657
        ],
        "type": "Point"
      },
      "properties": {
        "assigned_population": 82582.57618032818,
        "station_id": "kowloon::22.305::114.1615",
        "station_name": "\u4e5d\u9f8d Kowloon",
        "travel_time_minutes": 31.171896394505673
      },
      "type": "Feature"
    },
    {
      "geometry": {
        "coordinates": [
          114.128455,
          22.2812239
        ],
        "type": "Point"
      },
      "properties": {
        "assigned_population": 112539.18307305191,
        "station_id": "kennedy town::22.2812::114.1285",
        "station_name": "\u5805\u5c3c\u5730\u57ce Kennedy Town",
        "travel_time_minutes": 31.239135564221332
      },
      "type": "Feature"
    },
    {
      "geometry": {
        "coordinates": [
          114.1284421,
          22.2812637
        ],
        "type": "Point"
      },
      "properties": {
        "assigned_population": 149315.12236461483,
        "station_id": "kennedy town::22.2813::114.1284",
        "station_name": "\u5805\u5c3c\u5730\u57ce Kennedy Town",
        "travel_time_minutes": 31.244942578902016
      },
      "type": "Feature"
    },
    {
      "geometry": {
        "coordinates": [
          114.2003839,
          22.2911892
        ],
        "type": "Point"
      },
      "properties": {
        "assigned_population": 0.0,
        "station_id": "2::22.2912::114.2004",
        "station_name": "2",
        "travel_time_minutes": 31.470170172094925
      },
      "type": "Feature"
    },
    {
      "geometry": {
        "coordinates": [
          114.2003787,
          22.2912399
        ],
        "type": "Point"
      },
      "properties": {
        "assigned_population": 27736.119987783077,
        "station_id": "north point::22.2912::114.2004",
        "station_name": "\u5317\u89d2 North Point",
        "travel_time_minutes": 31.48980508326737
      },
      "type": "Feature"
    },
    {
      "geometry": {
        "coordinates": [
          114.2003787,
          22.2912062
        ],
        "type": "Point"
      },
      "properties": {
        "assigned_population": 0.0,
        "station_id": "1::22.2912::114.2004",
        "station_name": "1",
        "travel_time_minutes": 31.494727228820924
      },
      "type": "Feature"
    },
    {
      "geometry": {
        "coordinates": [
          114.2328977,
          22.3066758
        ],
        "type": "Point"
      },
      "properties": {
        "assigned_population": 0.0,
        "station_id": "lam tin::22.3067::114.2329",
        "station_name": "\u85cd\u7530 Lam Tin",
        "travel_time_minutes": 31.510400938055582
      },
      "type": "Feature"
    },
    {
      "geometry": {
        "coordinates": [
          114.2082597,
          22.3876375
        ],
        "type": "Point"
      },
      "properties": {
        "assigned_population": 0.0,
        "station_id": "1::22.3876::114.2083",
        "station_name": "1",
        "travel_time_minutes": 31.65324892004651
      },
      "type": "Feature"
    },
    {
      "geometry": {
        "coordinates": [
          114.2330154,
          22.3067536
        ],
        "type": "Point"
      },
      "properties": {
        "assigned_population": 16175.37737531928,
        "station_id": "lam tin::22.3068::114.233",
        "station_name": "\u85cd\u7530 Lam Tin",
        "travel_time_minutes": 31.688066346123698
      },
      "type": "Feature"
    },
    {
      "geometry": {
        "coordinates": [
          114.2085474,
          22.3877892
        ],
        "type": "Point"
      },
      "properties": {
        "assigned_population": 92424.7389555661,
        "station_id": "shek mun::22.3878::114.2085",
        "station_name": "\u77f3\u9580 Shek Mun",
        "travel_time_minutes": 31.72932849593225
      },
      "type": "Feature"
    },
    {
      "geometry": {
        "coordinates": [
          114.2083029,
          22.3875993
        ],
        "type": "Point"
      },
      "properties": {
        "assigned_population": 0.0,
        "station_id": "2::22.3876::114.2083",
        "station_name": "2",
        "travel_time_minutes": 31.730070537181437
      },
      "type": "Feature"
    },
    {
      "geometry": {
        "coordinates": [
          114.2084283,
          22.3878743
        ],
        "type": "Point"
      },
      "properties": {
        "assigned_population": 16442.564615767325,
        "station_id": "shek mun::22.3879::114.2084",
        "station_name": "\u77f3\u9580 Shek Mun",
        "travel_time_minutes": 31.92277002204812
      },
      "type": "Feature"
    },
    {
      "geometry": {
        "coordinates": [
          114.2005605,
          22.2904837
        ],
        "type": "Point"
      },
      "properties": {
        "assigned_population": 0.0,
        "station_id": "north point::22.2905::114.2006",
        "station_name": "\u5317\u89d2 North Point",
        "travel_time_minutes": 32.47672872419054
      },
      "type": "Feature"
    },
    {
      "geometry": {
        "coordinates": [
          114.2005968,
          22.2903632
        ],
        "type": "Point"
      },
      "properties": {
        "assigned_population": 0.0,
        "station_id": "4::22.2904::114.2006",
        "station_name": "4",
        "travel_time_minutes": 32.65045560740241
      },
      "type": "Feature"
    },
    {
      "geometry": {
        "coordinates": [
          114.2006096,
          22.290314
        ],
        "type": "Point"
      },
      "properties": {
        "assigned_population": 25764.039388591285,
        "station_id": "north point::22.2903::114.2006",
        "station_name": "\u5317\u89d2 North Point",
        "travel_time_minutes": 32.720793784102284
      },
      "type": "Feature"
    },
    {
      "geometry": {
        "coordinates": [
          114.1561054,
          22.2418706
        ],
        "type": "Point"
      },
      "properties": {
        "assigned_population": 0.0,
        "station_id": "lei tung::22.2419::114.1561",
        "station_name": "\u5229\u6771 Lei Tung",
        "travel_time_minutes": 33.39072269043713
      },
      "type": "Feature"
    },
    {
      "geometry": {
        "coordinates": [
          114.1560444,
          22.2419289
        ],
        "type": "Point"
      },
      "properties": {
        "assigned_population": 0.0,
        "station_id": "2::22.2419::114.156",
        "station_name": "2",
        "travel_time_minutes": 33.39119491457153
      },
      "type": "Feature"
    },
    {
      "geometry": {
        "coordinates": [
          114.156078,
          22.2418968
        ],
        "type": "Point"
      },
      "properties": {
        "assigned_population": 0.0,
        "station_id": "1::22.2419::114.1561",
        "station_name": "1",
        "travel_time_minutes": 33.44140555124869
      },
      "type": "Feature"
    },
    {
      "geometry": {
        "coordinates": [
          114.1560169,
          22.2419551
        ],
        "type": "Point"
      },
      "properties": {
        "assigned_population": 0.0,
        "station_id": "lei tung::22.242::114.156",
        "station_name": "\u5229\u6771 Lei Tung",
        "travel_time_minutes": 33.441967328156196
      },
      "type": "Feature"
    },
    {
      "geometry": {
        "coordinates": [
          114.2103814,
          22.4134759
        ],
        "type": "Point"
      },
      "properties": {
        "assigned_population": 0.0,
        "station_id": "2::22.4135::114.2104",
        "station_name": "2",
        "travel_time_minutes": 33.848485689805806
      },
      "type": "Feature"
    },
    {
      "geometry": {
        "coordinates": [
          114.2100166,
          22.4133903
        ],
        "type": "Point"
      },
      "properties": {
        "assigned_population": 36807.090918146634,
        "station_id": "university::22.4134::114.21",
        "station_name": "\u5927\u5b78 University",
        "travel_time_minutes": 33.90394687815119
      },
      "type": "Feature"
    },
    {
      "geometry": {
        "coordinates": [
          114.2087994,
          22.2883995
        ],
        "type": "Point"
      },
      "properties": {
        "assigned_population": 0.0,
        "station_id": "2::22.2884::114.2088",
        "station_name": "2",
        "travel_time_minutes": 33.918275818896824
      },
      "type": "Feature"
    },
    {
      "geometry": {
        "coordinates": [
          114.2100545,
          22.4133852
        ],
        "type": "Point"
      },
      "properties": {
        "assigned_population": 12983.981074364521,
        "station_id": "university::22.4134::114.2101",
        "station_name": "\u5927\u5b78 University",
        "travel_time_minutes": 33.95315918599765
      },
      "type": "Feature"
    },
    {
      "geometry": {
        "coordinates": [
          114.2088414,
          22.2884253
        ],
        "type": "Point"
      },
      "properties": {
        "assigned_population": 0.0,
        "station_id": "1::22.2884::114.2088",
        "station_name": "1",
        "travel_time_minutes": 33.983111517391244
      },
      "type": "Feature"
    },
    {
      "geometry": {
        "coordinates": [
          114.2093516,
          22.2877968
        ],
        "type": "Point"
      },
      "properties": {
        "assigned_population": 0.0,
        "station_id": "quarry bay::22.2878::114.2094",
        "station_name": "\u9c02\u9b5a\u6d8c Quarry Bay",
        "travel_time_minutes": 34.00590084106942
      },
      "type": "Feature"
    },
    {
      "geometry": {
        "coordinates": [
          114.2372388,
          22.2978558
        ],
        "type": "Point"
      },
      "properties": {
        "assigned_population": 27736.68366758695,
        "station_id": "yau tong::22.2979::114.2372",
        "station_name": "\u6cb9\u5858 Yau Tong",
        "travel_time_minutes": 34.162112300494
      },
      "type": "Feature"
    },
    {
      "geometry": {
        "coordinates": [
          114.2372215,
          22.2978445
        ],
        "type": "Point"
      },
      "properties": {
        "assigned_population": 0.0,
        "station_id": "yau tong::22.2978::114.2372",
        "station_name": "\u6cb9\u5858 Yau Tong",
        "travel_time_minutes": 34.189345624970414
      },
      "type": "Feature"
    },
    {
      "geometry": {
        "coordinates": [
          114.2103656,
          22.4137981
        ],
        "type": "Point"
      },
      "properties": {
        "assigned_population": 11174.586702849285,
        "station_id": "1::22.4138::114.2104",
        "station_name": "1",
        "travel_time_minutes": 34.2967831982739
      },
      "type": "Feature"
    },
    {
      "geometry": {
        "coordinates": [
          114.237149,
          22.2977854
        ],
        "type": "Point"
      },
      "properties": {
        "assigned_population": 0.0,
        "station_id": "3::22.2978::114.2371",
        "station_name": "3",
        "travel_time_minutes": 34.313476959975404
      },
      "type": "Feature"
    },
    {
      "geometry": {
        "coordinates": [
          114.2371485,
          22.2977851
        ],
        "type": "Point"
      },
      "properties": {
        "assigned_population": 14778.970582501883,
        "station_id": "4::22.2978::114.2371",
        "station_name": "4",
        "travel_time_minutes": 34.31423712916881
      },
      "type": "Feature"
    },
    {
      "geometry": {
        "coordinates": [
          114.2085874,
          22.2881704
        ],
        "type": "Point"
      },
      "properties": {
        "assigned_population": 0.0,
        "station_id": "3::22.2882::114.2086",
        "station_name": "3",
        "travel_time_minutes": 34.33748841256619
      },
      "type": "Feature"
    },
    {
      "geometry": {
        "coordinates": [
          114.2370945,
          22.2977986
        ],
        "type": "Point"
      },
      "properties": {
        "assigned_population": 36745.73281008896,
        "station_id": "yau tong::22.2978::114.2371",
        "station_name": "\u6cb9\u5858 Yau Tong",
        "travel_time_minutes": 34.36399654392207
      },
      "type": "Feature"
    },
    {
      "geometry": {
        "coordinates": [
          114.2085934,
          22.288108
        ],
        "type": "Point"
      },
      "properties": {
        "assigned_population": 0.0,
        "station_id": "4::22.2881::114.2086",
        "station_name": "4",
        "travel_time_minutes": 34.40237324350007
      },
      "type": "Feature"
    },
    {
      "geometry": {
        "coordinates": [
          114.2093931,
          22.288293
        ],
        "type": "Point"
      },
      "properties": {
        "assigned_population": 23476.398740582936,
        "station_id": "quarry bay::22.2883::114.2094",
        "station_name": "\u9c02\u9b5a\u6d8c Quarry Bay",
        "travel_time_minutes": 34.69604412204404
      },
      "type": "Feature"
    },
    {
      "geometry": {
        "coordinates": [
          114.2077906,
          22.2879805
        ],
        "type": "Point"
      },
      "properties": {
        "assigned_population": 0.0,
        "station_id": "quarry bay::22.288::114.2078",
        "station_name": "\u9c02\u9b5a\u6d8c Quarry Bay",
        "travel_time_minutes": 34.85267727752748
      },
      "type": "Feature"
    },
    {
      "geometry": {
        "coordinates": [
          114.2082975,
          22.2890063
        ],
        "type": "Point"
      },
      "properties": {
        "assigned_population": 25233.624612834967,
        "station_id": "quarry bay::22.289::114.2083",
        "station_name": "\u9c02\u9b5a\u6d8c Quarry Bay",
        "travel_time_minutes": 34.98034916213609
      },
      "type": "Feature"
    },
    {
      "geometry": {
        "coordinates": [
          114.1491605,
          22.2423922
        ],
        "type": "Point"
      },
      "properties": {
        "assigned_population": 0.0,
        "station_id": "2::22.2424::114.1492",
        "station_name": "2",
        "travel_time_minutes": 35.44021516546696
      },
      "type": "Feature"
    },
    {
      "geometry": {
        "coordinates": [
          114.149089,
          22.2423467
        ],
        "type": "Point"
      },
      "properties": {
        "assigned_population": 27738.859040144973,
        "station_id": "south horizons::22.2423::114.1491",
        "station_name": "\u6d77\u6021\u534a\u5cf6 South Horizons",
        "travel_time_minutes": 35.46385335709054
      },
      "type": "Feature"
    },
    {
      "geometry": {
        "coordinates": [
          114.1491929,
          22.2424128
        ],
        "type": "Point"
      },
      "properties": {
        "assigned_population": 41466.8733216121,
        "station_id": "south horizons::22.2424::114.1492",
        "station_name": "\u6d77\u6021\u534a\u5cf6 South Horizons",
        "travel_time_minutes": 35.49078495616996
      },
      "type": "Feature"
    },
    {
      "geometry": {
        "coordinates": [
          114.1491211,
          22.2423671
        ],
        "type": "Point"
      },
      "properties": {
        "assigned_population": 0.0,
        "station_id": "1::22.2424::114.1491",
        "station_name": "1",
        "travel_time_minutes": 35.50174942445551
      },
      "type": "Feature"
    },
    {
      "geometry": {
        "coordinates": [
          114.2161444,
          22.2847063
        ],
        "type": "Point"
      },
      "properties": {
        "assigned_population": 20723.131927104474,
        "station_id": "tai koo::22.2847::114.2161",
        "station_name": "\u592a\u53e4 Tai Koo",
        "travel_time_minutes": 36.246653694112375
      },
      "type": "Feature"
    },
    {
      "geometry": {
        "coordinates": [
          114.2161428,
          22.2845712
        ],
        "type": "Point"
      },
      "properties": {
        "assigned_population": 39032.01541323103,
        "station_id": "tai koo::22.2846::114.2161",
        "station_name": "\u592a\u53e4 Tai Koo",
        "travel_time_minutes": 36.434445401377914
      },
      "type": "Feature"
    },
    {
      "geometry": {
        "coordinates": [
          114.222844,
          22.4084544
        ],
        "type": "Point"
      },
      "properties": {
        "assigned_population": 97138.77127441176,
        "station_id": "tai shui hang::22.4085::114.2228",
        "station_name": "\u5927\u6c34\u5751 Tai Shui Hang",
        "travel_time_minutes": 37.349011967595025
      },
      "type": "Feature"
    },
    {
      "geometry": {
        "coordinates": [
          114.2228911,
          22.4087844
        ],
        "type": "Point"
      },
      "properties": {
        "assigned_population": 0.0,
        "station_id": "1::22.4088::114.2229",
        "station_name": "1",
        "travel_time_minutes": 37.543115084598064
      },
      "type": "Feature"
    },
    {
      "geometry": {
        "coordinates": [
          114.2227056,
          22.4085161
        ],
        "type": "Point"
      },
      "properties": {
        "assigned_population": 11926.972355705811,
        "station_id": "tai shui hang::22.4085::114.2227",
        "station_name": "\u5927\u6c34\u5751 Tai Shui Hang",
        "travel_time_minutes": 37.546451118619316
      },
      "type": "Feature"
    },
    {
      "geometry": {
        "coordinates": [
          114.2229436,
          22.4087596
        ],
        "type": "Point"
      },
      "properties": {
        "assigned_population": 10526.353023194593,
        "station_id": "2::22.4088::114.2229",
        "station_name": "2",
        "travel_time_minutes": 37.61887293742362
      },
      "type": "Feature"
    },
    {
      "geometry": {
        "coordinates": [
          114.2523284,
          22.3041145
        ],
        "type": "Point"
      },
      "properties": {
        "assigned_population": 13003.903172375276,
        "station_id": "tiu keng leng::22.3041::114.2523",
        "station_name": "\u8abf\u666f\u5dba Tiu Keng Leng",
        "travel_time_minutes": 37.91430697096173
      },
      "type": "Feature"
    },
    {
      "geometry": {
        "coordinates": [
          114.2524315,
          22.3040201
        ],
        "type": "Point"
      },
      "properties": {
        "assigned_population": 12729.863291013184,
        "station_id": "tiu keng leng::22.304::114.2524",
        "station_name": "\u8abf\u666f\u5dba Tiu Keng Leng",
        "travel_time_minutes": 37.95491072978765
      },
      "type": "Feature"
    },
    {
      "geometry": {
        "coordinates": [
          114.2222818,
          22.2816237
        ],
        "type": "Point"
      },
      "properties": {
        "assigned_population": 49339.42952943478,
        "station_id": "sai wan ho::22.2816::114.2223",
        "station_name": "\u897f\u7063\u6cb3 Sai Wan Ho",
        "travel_time_minutes": 38.26461928712661
      },
      "type": "Feature"
    },
    {
      "geometry": {
        "coordinates": [
          114.225705,
          22.4174642
        ],
        "type": "Point"
      },
      "properties": {
        "assigned_population": 0.0,
        "station_id": "1::22.4175::114.2257",
        "station_name": "1",
        "travel_time_minutes": 40.13467459187816
      },
      "type": "Feature"
    },
    {
      "geometry": {
        "coordinates": [
          114.2258047,
          22.4174379
        ],
        "type": "Point"
      },
      "properties": {
        "assigned_population": 18137.018016449816,
        "station_id": "heng on::22.4174::114.2258",
        "station_name": "\u6046\u5b89 Heng On",
        "travel_time_minutes": 40.14912016752284
      },
      "type": "Feature"
    },
    {
      "geometry": {
        "coordinates": [
          114.2256631,
          22.4174812
        ],
        "type": "Point"
      },
      "properties": {
        "assigned_population": 10349.447193415339,
        "station_id": "heng on::22.4175::114.2257",
        "station_name": "\u6046\u5b89 Heng On",
        "travel_time_minutes": 40.19346894835468
      },
      "type": "Feature"
    },
    {
      "geometry": {
        "coordinates": [
          114.2257624,
          22.4174457
        ],
        "type": "Point"
      },
      "properties": {
        "assigned_population": 0.0,
        "station_id": "2::22.4174::114.2258",
        "station_name": "2",
        "travel_time_minutes": 40.20454213475815
      },
      "type": "Feature"
    },
    {
      "geometry": {
        "coordinates": [
          114.2288532,
          22.2792542
        ],
        "type": "Point"
      },
      "properties": {
        "assigned_population": 15918.869856529866,
        "station_id": "shau kei wan::22.2793::114.2289",
        "station_name": "\u7b72\u7b95\u7063 Shau Kei Wan",
        "travel_time_minutes": 40.29521746484851
      },
      "type": "Feature"
    },
    {
      "geometry": {
        "coordinates": [
          114.2599465,
          22.3074422
        ],
        "type": "Point"
      },
      "properties": {
        "assigned_population": 10173.35421696997,
        "station_id": "tseung kwan o::22.3074::114.2599",
        "station_name": "\u5c07\u8ecd\u6fb3 Tseung Kwan O",
        "travel_time_minutes": 40.36562084343563
      },
      "type": "Feature"
    },
    {
      "geometry": {
        "coordinates": [
          114.2599962,
          22.3073157
        ],
        "type": "Point"
      },
      "properties": {
        "assigned_population": 10003.62119973682,
        "station_id": "tseung kwan o::22.3073::114.26",
        "station_name": "\u5c07\u8ecd\u6fb3 Tseung Kwan O",
        "travel_time_minutes": 40.36879900533945
      },
      "type": "Feature"
    },
    {
      "geometry": {
        "coordinates": [
          114.2288177,
          22.2790834
        ],
        "type": "Point"
      },
      "properties": {
        "assigned_population": 0.0,
        "station_id": "shau kei wan::22.2791::114.2288",
        "station_name": "\u7b72\u7b95\u7063 Shau Kei Wan",
        "travel_time_minutes": 40.4774380972638
      },
      "type": "Feature"
    },
    {
      "geometry": {
        "coordinates": [
          114.0288936,
          22.3318198
        ],
        "type": "Point"
      },
      "properties": {
        "assigned_population": 0.0,
        "station_id": "sunny bay::22.3318::114.0289",
        "station_name": "\u6b23\u6fb3 Sunny Bay",
        "travel_time_minutes": 40.77033755760277
      },
      "type": "Feature"
    },
    {
      "geometry": {
        "coordinates": [
          114.0287808,
          22.3319141
        ],
        "type": "Point"
      },
      "properties": {
        "assigned_population": 297027.78259642713,
        "station_id": "sunny bay::22.3319::114.0288",
        "station_name": "\u6b23\u6fb3 Sunny Bay",
        "travel_time_minutes": 40.88696562019115
      },
      "type": "Feature"
    },
    {
      "geometry": {
        "coordinates": [
          114.0289586,
          22.3317081
        ],
        "type": "Point"
      },
      "properties": {
        "assigned_population": 18693.04883994548,
        "station_id": "3::22.3317::114.029",
        "station_name": "3",
        "travel_time_minutes": 40.94665636551155
      },
      "type": "Feature"
    },
    {
      "geometry": {
        "coordinates": [
          114.0290377,
          22.3317036
        ],
        "type": "Point"
      },
      "properties": {
        "assigned_population": 45636.99313853753,
        "station_id": "sunny bay::22.3317::114.029",
        "station_name": "\u6b23\u6fb3 Sunny Bay",
        "travel_time_minutes": 41.01612181972585
      },
      "type": "Feature"
    },
    {
      "geometry": {
        "coordinates": [
          114.2316247,
          22.4248302
        ],
        "type": "Point"
      },
      "properties": {
        "assigned_population": 0.0,
        "station_id": "1::22.4248::114.2316",
        "station_name": "1",
        "travel_time_minutes": 42.74595715673159
      },
      "type": "Feature"
    },
    {
      "geometry": {
        "coordinates": [
          114.2318125,
          22.4247822
        ],
        "type": "Point"
      },
      "properties": {
        "assigned_population": 7882.814536705944,
        "station_id": "ma on shan::22.4248::114.2318",
        "station_name": "\u99ac\u978d\u5c71 Ma On Shan",
        "travel_time_minutes": 42.764755813881806
      },
      "type": "Feature"
    },
    {
      "geometry": {
        "coordinates": [
          114.2316437,
          22.4247754
        ],
        "type": "Point"
      },
      "properties": {
        "assigned_population": 0.0,
        "station_id": "2::22.4248::114.2316",
        "station_name": "2",
        "travel_time_minutes": 42.825942027531134
      },
      "type": "Feature"
    },
    {
      "geometry": {
        "coordinates": [
          114.2643406,
          22.3155139
        ],
        "type": "Point"
      },
      "properties": {
        "assigned_population": 0.0,
        "station_id": "hang hau::22.3155::114.2643",
        "station_name": "\u5751\u53e3 Hang Hau",
        "travel_time_minutes": 42.88902960098208
      },
      "type": "Feature"
    },
    {
      "geometry": {
        "coordinates": [
          114.2644008,
          22.3155474
        ],
        "type": "Point"
      },
      "properties": {
        "assigned_population": 0.0,
        "station_id": "hang hau::22.3155::114.2644",
        "station_name": "\u5751\u53e3 Hang Hau",
        "travel_time_minutes": 42.92114887709077
      },
      "type": "Feature"
    },
    {
      "geometry": {
        "coordinates": [
          114.2317637,
          22.4249134
        ],
        "type": "Point"
      },
      "properties": {
        "assigned_population": 0.0,
        "station_id": "ma on shan::22.4249::114.2318",
        "station_name": "\u99ac\u978d\u5c71 Ma On Shan",
        "travel_time_minutes": 42.957593333352214
      },
      "type": "Feature"
    },
    {
      "geometry": {
        "coordinates": [
          114.2397867,
          22.2766653
        ],
        "type": "Point"
      },
      "properties": {
        "assigned_population": 40634.10521136706,
        "station_id": "heng fa chuen::22.2767::114.2398",
        "station_name": "\u674f\u82b1\u90a8 Heng Fa Chuen",
        "travel_time_minutes": 43.09447908131483
      },
      "type": "Feature"
    },
    {
      "geometry": {
        "coordinates": [
          114.2397239,
          22.276619
        ],
        "type": "Point"
      },
      "properties": {
        "assigned_population": 0.0,
        "station_id": "heng fa chuen::22.2766::114.2397",
        "station_name": "\u674f\u82b1\u90a8 Heng Fa Chuen",
        "travel_time_minutes": 43.19775423951699
      },
      "type": "Feature"
    },
    {
      "geometry": {
        "coordinates": [
          114.2687081,
          22.2956053
        ],
        "type": "Point"
      },
      "properties": {
        "assigned_population": 9436.44327801243,
        "station_id": "lohas park::22.2956::114.2687",
        "station_name": "\u5eb7\u57ce LOHAS Park",
        "travel_time_minutes": 43.90839716056993
      },
      "type": "Feature"
    },
    {
      "geometry": {
        "coordinates": [
          114.2687986,
          22.2955114
        ],
        "type": "Point"
      },
      "properties": {
        "assigned_population": 8509.909404154307,
        "station_id": "lohas park::22.2955::114.2688",
        "station_name": "\u5eb7\u57ce LOHAS Park",
        "travel_time_minutes": 44.010513363812166
      },
      "type": "Feature"
    },
    {
      "geometry": {
        "coordinates": [
          114.1705635,
          22.444698
        ],
        "type": "Point"
      },
      "properties": {
        "assigned_population": 0.0,
        "station_id": "3::22.4447::114.1706",
        "station_name": "3",
        "travel_time_minutes": 44.14041263379269
      },
      "type": "Feature"
    },
    {
      "geometry": {
        "coordinates": [
          114.170567,
          22.4447418
        ],
        "type": "Point"
      },
      "properties": {
        "assigned_population": 0.0,
        "station_id": "4::22.4447::114.1706",
        "station_name": "4",
        "travel_time_minutes": 44.14552831216895
      },
      "type": "Feature"
    },
    {
      "geometry": {
        "coordinates": [
          114.1705591,
          22.4446283
        ],
        "type": "Point"
      },
      "properties": {
        "assigned_population": 0.0,
        "station_id": "2::22.4446::114.1706",
        "station_name": "2",
        "travel_time_minutes": 44.23745597148127
      },
      "type": "Feature"
    },
    {
      "geometry": {
        "coordinates": [
          114.1705571,
          22.444594
        ],
        "type": "Point"
      },
      "properties": {
        "assigned_population": 18380.89477036084,
        "station_id": "1::22.4446::114.1706",
        "station_name": "1",
        "travel_time_minutes": 44.28519966304499
      },
      "type": "Feature"
    },
    {
      "geometry": {
        "coordinates": [
          114.0634688,
          22.4348907
        ],
        "type": "Point"
      },
      "properties": {
        "assigned_population": 29766.453398458678,
        "station_id": "kam sheung road::22.4349::114.0635",
        "station_name": "\u9326\u4e0a\u8def Kam Sheung Road",
        "travel_time_minutes": 44.39295231615519
      },
      "type": "Feature"
    },
    {
      "geometry": {
        "coordinates": [
          114.1707659,
          22.4445147
        ],
        "type": "Point"
      },
      "properties": {
        "assigned_population": 42437.600267543894,
        "station_id": "tai po market::22.4445::114.1708",
        "station_name": "\u5927\u57d4\u589f Tai Po Market",
        "travel_time_minutes": 44.42337795432833
      },
      "type": "Feature"
    },
    {
      "geometry": {
        "coordinates": [
          114.1707762,
          22.444637
        ],
        "type": "Point"
      },
      "properties": {
        "assigned_population": 0.0,
        "station_id": "tai po market::22.4446::114.1708",
        "station_name": "\u5927\u57d4\u589f Tai Po Market",
        "travel_time_minutes": 44.4265091284811
      },
      "type": "Feature"
    },
    {
      "geometry": {
        "coordinates": [
          114.1707875,
          22.4447575
        ],
        "type": "Point"
      },
      "properties": {
        "assigned_population": 0.0,
        "station_id": "tai po market::22.4448::114.1708",
        "station_name": "\u5927\u57d4\u589f Tai Po Market",
        "travel_time_minutes": 44.429632130460355
      },
      "type": "Feature"
    },
    {
      "geometry": {
        "coordinates": [
          114.0633092,
          22.4347937
        ],
        "type": "Point"
      },
      "properties": {
        "assigned_population": 177779.64246098459,
        "station_id": "kam sheung road::22.4348::114.0633",
        "station_name": "\u9326\u4e0a\u8def Kam Sheung Road",
        "travel_time_minutes": 44.46409006899285
      },
      "type": "Feature"
    },
    {
      "geometry": {
        "coordinates": [
          114.2579671,
          22.3225369
        ],
        "type": "Point"
      },
      "properties": {
        "assigned_population": 139396.85610438447,
        "station_id": "po lam::22.3225::114.258",
        "station_name": "\u5bf6\u7433 Po Lam",
        "travel_time_minutes": 45.43838972982666
      },
      "type": "Feature"
    },
    {
      "geometry": {
        "coordinates": [
          114.2438864,
          22.4290802
        ],
        "type": "Point"
      },
      "properties": {
        "assigned_population": 19873.192098346317,
        "station_id": "wu kai sha::22.4291::114.2439",
        "station_name": "\u70cf\u6eaa\u6c99 Wu Kai Sha",
        "travel_time_minutes": 45.9518211995784
      },
      "type": "Feature"
    },
    {
      "geometry": {
        "coordinates": [
          114.0451419,
          22.3155384
        ],
        "type": "Point"
      },
      "properties": {
        "assigned_population": 32329.5858706708,
        "station_id": "disneyland resort::22.3155::114.0451",
        "station_name": "\u8fea\u58eb\u5c3c Disneyland Resort",
        "travel_time_minutes": 46.020642907663266
      },
      "type": "Feature"
    },